%time,field.transforms0.header.seq,field.transforms0.header.stamp,field.transforms0.header.frame_id,field.transforms0.child_frame_id,field.transforms0.transform.translation.x,field.transforms0.transform.translation.y,field.transforms0.transform.translation.z,field.transforms0.transform.rotation.x,field.transforms0.transform.rotation.y,field.transforms0.transform.rotation.z,field.transforms0.transform.rotation.w
1662323726277609612,0,1662323726271731138,t265_odom_frame,t265_pose_frame,-0.0001819889439502731,0.00012993240670766681,0.0005128285847604275,-0.017610693350434303,0.017241936177015305,-0.000360593170626089,0.9996961951255798
1662323726282440292,0,1662323726276730299,t265_odom_frame,t265_pose_frame,-0.00017448083963245153,0.00013173097977414727,0.000540406908839941,-0.017617618665099144,0.01722957380115986,-0.00034853615215979517,0.9996963143348694
1662323726287039798,0,1662323726281729221,t265_odom_frame,t265_pose_frame,-0.0002679313183762133,0.00011914187052752823,0.00047276291297748685,-0.017619449645280838,0.017199475318193436,-0.0003651316510513425,0.9996967911720276
1662323726292309397,0,1662323726286728382,t265_odom_frame,t265_pose_frame,-0.00024765016860328615,0.00011588748020585626,0.0004895954625681043,-0.017635662108659744,0.017206929624080658,-0.0003709853917825967,0.9996963739395142
1662323726297480149,0,1662323726291727066,t265_odom_frame,t265_pose_frame,-0.00023299091844819486,0.00011924745194846764,0.0005082589923404157,-0.01764199137687683,0.01725880242884159,-0.00039136011037044227,0.9996953010559082
1662323726302378337,0,1662323726296726942,t265_odom_frame,t265_pose_frame,-0.0002173848479287699,0.00012271307059563696,0.0005291613633744419,-0.017639148980379105,0.017283517867326736,-0.0003790107148233801,0.9996949434280396
1662323726307216283,0,1662323726301726341,t265_odom_frame,t265_pose_frame,-0.00019789874204434454,0.00012625630188267678,0.000552997924387455,-0.017642173916101456,0.017275137826800346,-0.0003906765778083354,0.9996950626373291
1662323726312365374,0,1662323726306725025,t265_odom_frame,t265_pose_frame,-0.00020156223035883158,0.00011996337707387283,0.0005792276933789253,-0.01762801967561245,0.017267674207687378,-0.0003978783206548542,0.9996954202651978
1662323726315460468,0,1662323726415113554,/t265_link,/d400_link,0.0,0.0,0.0,0.0,0.0,0.0,1.0
1662323726317133889,0,1662323726311724424,t265_odom_frame,t265_pose_frame,-0.00019338089623488486,0.00011721179907908663,0.0006131092668510973,-0.017638832330703735,0.017268864437937737,-0.00038900921936146915,0.9996952414512634
1662323726322067525,0,1662323726316723108,t265_odom_frame,t265_pose_frame,-0.00023007774143479764,0.00011611383524723351,0.0004692720540333539,-0.017619643360376358,0.01725062169134617,-0.0003715482307597995,0.9996958374977112
1662323726327299028,0,1662323726321723223,t265_odom_frame,t265_pose_frame,-0.00023565292940475047,0.00012106908980058506,0.0005038420204073191,-0.01763019897043705,0.017230961471796036,-0.0003673305327538401,0.9996960163116455
1662323726332617826,0,1662323726326722145,t265_odom_frame,t265_pose_frame,-0.00023747759405523539,0.00011905985593330115,0.0005361301591619849,-0.01761808805167675,0.017199501395225525,-0.0003475027915555984,0.9996967911720276
1662323726337721750,0,1662323726331721306,t265_odom_frame,t265_pose_frame,-0.00023908891307655722,0.00011721665214281529,0.0005714810104109347,-0.01762031577527523,0.017194479703903198,-0.00035487208515405655,0.9996968507766724
1662323726342323201,0,1662323726336720228,t265_odom_frame,t265_pose_frame,-0.00021896605903748423,0.00011672348773572594,0.0005962628056295216,-0.01762116327881813,0.017202826216816902,-0.00034327327739447355,0.9996967315673828
1662323726347486168,0,1662323726341718912,t265_odom_frame,t265_pose_frame,-0.00020564459555316716,0.00011624978651525453,0.0006277013453654945,-0.017631635069847107,0.01721115969121456,-0.00033909667399711907,0.9996963143348694
1662323726352230843,0,1662323726346719265,t265_odom_frame,t265_pose_frame,-0.00018756695499178022,0.00011636870476650074,0.0006602517678402364,-0.01762028969824314,0.017230629920959473,-0.00034010762465186417,0.9996961951255798
1662323726357179142,0,1662323726351718187,t265_odom_frame,t265_pose_frame,-0.00020975465304218233,0.00014145072782412171,0.00045779062202200294,-0.01762334816157818,0.01721818745136261,-0.0003425493196118623,0.9996963739395142
1662323726362305184,0,1662323726356717110,t265_odom_frame,t265_pose_frame,-0.00019705558952409774,0.00014568795450031757,0.00047697799163870513,-0.01763346791267395,0.01723759062588215,-0.000333702249918133,0.999695897102356
1662323726367471493,0,1662323726361716270,t265_odom_frame,t265_pose_frame,-0.00018384434224572033,0.00015055356197990477,0.0004981326055712998,-0.017637543380260468,0.017239784821867943,-0.00032704867771826684,0.9996957778930664
1662323726372231499,0,1662323726366716146,t265_odom_frame,t265_pose_frame,-0.00017895278870128095,0.00015103716577868909,0.0005223555490374565,-0.017636185511946678,0.017223700881004333,-0.0003194229502696544,0.9996960759162903
1662323726377351811,0,1662323726371715069,t265_odom_frame,t265_pose_frame,-0.00017342038336209953,0.00015286350389942527,0.0005482287961058319,-0.017629379406571388,0.017208106815814972,-0.00032825898961164057,0.9996964931488037
1662323726382240724,0,1662323726376714468,t265_odom_frame,t265_pose_frame,-0.00017117925744969398,0.00015384852304123342,0.0005752775468863547,-0.017633693292737007,0.01719549112021923,-0.00032711675157770514,0.9996966123580933
1662323726387123672,0,1662323726381713152,t265_odom_frame,t265_pose_frame,-0.00045065878657624125,7.010288391029462e-05,0.0004240584676153958,-0.017600227147340775,0.017154522240161896,-0.00033099178108386695,0.9996978640556335
1662323726392262347,0,1662323726386712074,t265_odom_frame,t265_pose_frame,-0.0004618942621164024,6.479838339146227e-05,0.0004397802986204624,-0.01759832352399826,0.01714888960123062,-0.0003451877855695784,0.9996979832649231
1662323726397244831,0,1662323726391712189,t265_odom_frame,t265_pose_frame,-0.00047071275184862316,5.9199301176704466e-05,0.00045603711623698473,-0.017599765211343765,0.017149286344647408,-0.00035363470669835806,0.9996979832649231
1662323726402537726,0,1662323726396711111,t265_odom_frame,t265_pose_frame,-0.00047622606507502496,6.170802225824445e-05,0.0004744051839224994,-0.017610343173146248,0.017158206552267075,-0.0003515978460200131,0.9996976256370544
1662323726407797024,0,1662323726401710033,t265_odom_frame,t265_pose_frame,-0.0004811653052456677,6.250716978684068e-05,0.0004926608526147902,-0.01762291230261326,0.017178475856781006,-0.0003501951869111508,0.9996970891952515
1662323726412337804,0,1662323726406709194,t265_odom_frame,t265_pose_frame,-0.0004830025427509099,6.533835403388366e-05,0.0005127789918333292,-0.017618538811802864,0.01719132997095585,-0.00036696609458886087,0.9996969699859619
1662323726415425318,0,1662323726515225151,/t265_link,/d400_link,0.0,0.0,0.0,0.0,0.0,0.0,1.0
1662323726417100012,0,1662323726411708355,t265_odom_frame,t265_pose_frame,-0.0004810740356333554,7.027868559816852e-05,0.0005346026155166328,-0.017616089433431625,0.01719132624566555,-0.00035795115400105715,0.9996970295906067
1662323726422235183,0,1662323726416707039,t265_odom_frame,t265_pose_frame,-0.0002953803341370076,0.00010819848102983087,0.0004350057861302048,-0.017627019435167313,0.0172145813703537,-0.00033756281482055783,0.9996963739395142
1662323726427338003,0,1662323726421707392,t265_odom_frame,t265_pose_frame,-0.0002984095481224358,0.00010618297528708354,0.0004517783527262509,-0.0176231786608696,0.017211945727467537,-0.00032452543382532895,0.9996964931488037
1662323726432520619,0,1662323726426706076,t265_odom_frame,t265_pose_frame,-0.0003031402302440256,0.00010283254232490435,0.00046935537829995155,-0.017619803547859192,0.017194613814353943,-0.0003146780072711408,0.9996968507766724
1662323726437285680,0,1662323726431704998,t265_odom_frame,t265_pose_frame,-0.0003033534740097821,9.823797881836072e-05,0.0004921669024042785,-0.01761491782963276,0.017190655693411827,-0.0003020402800757438,0.9996970295906067
1662323726442190986,0,1662323726436704397,t265_odom_frame,t265_pose_frame,-0.0003094206331297755,9.230658179149032e-05,0.0005150109645910561,-0.0176177266985178,0.017170310020446777,-0.00029676000121980906,0.9996973276138306
1662323726447284586,0,1662323726441703081,t265_odom_frame,t265_pose_frame,-0.00031682418193668127,8.50496580824256e-05,0.0005390031146816909,-0.017615405842661858,0.017166025936603546,-0.00028642048710025847,0.9996974468231201
1662323726452306032,0,1662323726446703196,t265_odom_frame,t265_pose_frame,-0.0003179335908498615,8.143194281728938e-05,0.000560815678909421,-0.017605243250727654,0.017159558832645416,-0.0002809709694702178,0.999697744846344
1662323726457356483,0,1662323726451702356,t265_odom_frame,t265_pose_frame,-0.00029384088702499866,9.039389988174662e-05,0.0004609108145814389,-0.017600042745471,0.017140179872512817,-0.00028315221425145864,0.9996981024742126
1662323726462475682,0,1662323726456701279,t265_odom_frame,t265_pose_frame,-0.00029217643896117806,8.750101551413536e-05,0.0004818308516405523,-0.01760866865515709,0.01712728850543499,-0.0002814004838000983,0.9996982216835022
1662323726467315823,0,1662323726461700201,t265_odom_frame,t265_pose_frame,-0.00028851418755948544,8.995729149319232e-05,0.0004962884122505784,-0.017610730603337288,0.017134008929133415,-0.00028156154439784586,0.9996981024742126
1662323726472289899,0,1662323726466699123,t265_odom_frame,t265_pose_frame,-0.00028305372688919306,9.071594104170799e-05,0.0005170916556380689,-0.017624514177441597,0.01714450865983963,-0.00027437813696451485,0.9996976256370544
1662323726477281887,0,1662323726471699238,t265_odom_frame,t265_pose_frame,-0.0002763638040050864,9.25210042623803e-05,0.0005381802329793572,-0.017624637112021446,0.017161905765533447,-0.0002735531597863883,0.9996973276138306
1662323726482455260,0,1662323726476697922,t265_odom_frame,t265_pose_frame,-0.0002733310975600034,8.873944898368791e-05,0.0005627862410619855,-0.017619196325540543,0.017168838530778885,-0.0002724465448409319,0.9996973276138306
1662323726487276771,0,1662323726481697321,t265_odom_frame,t265_pose_frame,-0.00025370053481310606,0.00010098197526531294,0.000387737643904984,-0.01761772856116295,0.01718124933540821,-0.0002716618764679879,0.999697208404541
1662323726492343977,0,1662323726486696243,t265_odom_frame,t265_pose_frame,-0.000248709722654894,9.810855408431962e-05,0.0004006603267043829,-0.01762359030544758,0.017173735424876213,-0.000269984157057479,0.9996971487998962
1662323726497312170,0,1662323726491696119,t265_odom_frame,t265_pose_frame,-0.00024046200269367546,9.964656055672094e-05,0.00041975939529947937,-0.017618630081415176,0.017187656834721565,-0.0002739189367275685,0.9996969699859619
1662323726502328468,0,1662323726496695280,t265_odom_frame,t265_pose_frame,-0.00023485353449359536,9.863631566986442e-05,0.0004399308527354151,-0.017612531781196594,0.017180196940898895,-0.0002823137619998306,0.9996972680091858
1662323726507493102,0,1662323726501694202,t265_odom_frame,t265_pose_frame,-0.00023047493596095592,9.781708649825305e-05,0.0004636558296624571,-0.017587246373295784,0.01716170646250248,-0.00028669933089986444,0.9996979832649231
1662323726512004829,0,1662323726506719351,t265_odom_frame,t265_pose_frame,-0.0002300094929523766,0.00010519704665057361,0.00047952993190847337,-0.017590438947081566,0.017188863828778267,-0.0002998926502186805,0.9996975064277649
1662323726515542910,0,1662323726615311839,/t265_link,/d400_link,0.0,0.0,0.0,0.0,0.0,0.0,1.0
1662323726517124791,0,1662323726511719227,t265_odom_frame,t265_pose_frame,-0.0002268450625706464,0.00011158343841088936,0.0004986361018382013,-0.017636412754654884,0.017231954261660576,-0.00028269036556594074,0.999695897102356
1662323726522267033,0,1662323726516718149,t265_odom_frame,t265_pose_frame,-0.00015762905240990222,7.719617860857397e-05,0.0004140131059102714,-0.017627660185098648,0.017207030206918716,-0.0002687769301701337,0.9996965527534485
1662323726527338381,0,1662323726521717310,t265_odom_frame,t265_pose_frame,-0.00014519704564008862,8.774502202868462e-05,0.0004129901062697172,-0.017592312768101692,0.017104890197515488,-0.0002839122898876667,0.9996988773345947
1662323726532490234,0,1662323726526715994,t265_odom_frame,t265_pose_frame,-0.00013286928879097104,6.780130206607282e-05,0.00043604359962046146,-0.01759517565369606,0.01712832786142826,-0.0003058669390156865,0.9996984004974365
1662323726537393546,0,1662323726531715393,t265_odom_frame,t265_pose_frame,-0.00011789646669058129,6.459243013523519e-05,0.0004505472315941006,-0.017616810277104378,0.017231004312634468,-0.000298757862765342,0.9996962547302246
1662323726542203004,0,1662323726536714315,t265_odom_frame,t265_pose_frame,-0.0001060188005794771,5.919282557442784e-05,0.00046648032730445266,-0.017600513994693756,0.01722908765077591,-0.000291902368189767,0.9996966123580933
1662323726547127092,0,1662323726541714191,t265_odom_frame,t265_pose_frame,-0.00010714988457038999,6.37882694718428e-05,0.0004956395132467151,-0.017580782994627953,0.017106015235185623,-0.00030956295086070895,0.9996991157531738
1662323726552145608,0,1662323726546713352,t265_odom_frame,t265_pose_frame,-0.00010388637019786984,6.425954052247107e-05,0.0005253695999272168,-0.017583243548870087,0.017125660553574562,-0.00031728344038128853,0.9996986985206604
1662323726557388796,0,1662323726551712275,t265_odom_frame,t265_pose_frame,-0.0002122749137924984,5.8986322983400896e-05,0.00036707191611640155,-0.017584193497896194,0.017168115824460983,-0.0003072000399697572,0.9996979236602783
1662323726562747825,0,1662323726556711197,t265_odom_frame,t265_pose_frame,-0.0002198113943450153,4.9286376452073455e-05,0.00035526612191461027,-0.017596645280718803,0.017194684594869614,-0.0003112599370069802,0.9996972680091858
1662323726567498912,0,1662323726561710358,t265_odom_frame,t265_pose_frame,-0.00022763195738662034,4.568196527543478e-05,0.0003599206975195557,-0.01758771389722824,0.0171159990131855,-0.0003330792242195457,0.9996987581253052
1662323726572377416,0,1662323726566709280,t265_odom_frame,t265_pose_frame,-0.00023711263202130795,4.1089224396273494e-05,0.0003625737736001611,-0.017575876787304878,0.017080992460250854,-0.00032726064091548324,0.9996995329856873
1662323726577148607,0,1662323726571709156,t265_odom_frame,t265_pose_frame,-0.00023594828962814063,3.6855573853245005e-05,0.0003540499892551452,-0.017559194937348366,0.01712505891919136,-0.0003095133579336107,0.9996991157531738
1662323726582113795,0,1662323726576708317,t265_odom_frame,t265_pose_frame,-0.00023953450727276504,3.1580024369759485e-05,0.00034832427627407014,-0.017581799998879433,0.017164813354611397,-0.00030699645867571235,0.9996980428695679
1662323726587055615,0,1662323726581707239,t265_odom_frame,t265_pose_frame,-0.0002199322043452412,8.223539043683559e-05,0.0003946292563341558,-0.017608512192964554,0.017256557941436768,-0.0002796000335365534,0.9996960163116455
1662323726592251588,0,1662323726586706161,t265_odom_frame,t265_pose_frame,-0.00022137250925879925,8.810516010271385e-05,0.0004254856030456722,-0.017586350440979004,0.017199179157614708,-0.0002774492313619703,0.9996973872184753
1662323726597563340,0,1662323726591706276,t265_odom_frame,t265_pose_frame,-0.00021702333469875157,9.04394401004538e-05,0.0004428970569279045,-0.017597582191228867,0.017206862568855286,-0.0002674413553904742,0.9996970891952515
1662323726602080248,0,1662323726596705437,t265_odom_frame,t265_pose_frame,-0.00021565388306044042,9.38038865569979e-05,0.00045864301500841975,-0.0176388006657362,0.01725410670042038,-0.00025234511122107506,0.9996954798698425
1662323726607398437,0,1662323726601704121,t265_odom_frame,t265_pose_frame,-0.00021726726845372468,8.793475717538968e-05,0.00046994094736874104,-0.017629966139793396,0.01725316047668457,-0.0002604239562060684,0.9996956586837769
1662323726612190202,0,1662323726606703281,t265_odom_frame,t265_pose_frame,-0.0002183094620704651,8.473089837934822e-05,0.0004873229772783816,-0.017607344314455986,0.017217177897691727,-0.0002668969100341201,0.9996967315673828
1662323726615722089,0,1662323726715407203,/t265_link,/d400_link,0.0,0.0,0.0,0.0,0.0,0.0,1.0
1662323726617126236,0,1662323726611702442,t265_odom_frame,t265_pose_frame,-0.0002203543990617618,7.968692079884931e-05,0.0005047742743045092,-0.017603015527129173,0.017214559018611908,-0.0002750645508058369,0.9996967911720276
1662323726622173566,0,1662323726616702080,t265_odom_frame,t265_pose_frame,-0.000330982991727069,7.7263088314794e-05,0.00043551356066018343,-0.017591409385204315,0.01716219261288643,-0.0003035202971659601,0.9996979236602783
1662323726627569709,0,1662323726621701479,t265_odom_frame,t265_pose_frame,-0.0003326289588585496,7.350517262239009e-05,0.00045961159048601985,-0.01758681610226631,0.017168128862977028,-0.0003002207959070802,0.9996978640556335
1662323726632577950,0,1662323726626700163,t265_odom_frame,t265_pose_frame,-0.00033025266020558774,6.991964619373903e-05,0.0004888742696493864,-0.0175666194409132,0.017139403149485588,-0.0003194100863765925,0.9996987581253052
1662323726637281336,0,1662323726631699324,t265_odom_frame,t265_pose_frame,-0.00032702970202080905,6.652221782132983e-05,0.0005196008714847267,-0.01758032664656639,0.01711946539580822,-0.0003149272524751723,0.9996988773345947
1662323726642348533,0,1662323726636698484,t265_odom_frame,t265_pose_frame,-0.00032755560823716223,7.294862734852359e-05,0.0005410203593783081,-0.017595455050468445,0.017151476815342903,-0.0003098952292930335,0.9996980428695679
1662323726647415959,0,1662323726641698360,t265_odom_frame,t265_pose_frame,-0.00032337679294869304,7.644003926543519e-05,0.0005701350164599717,-0.017596952617168427,0.01716330647468567,-0.0003118813328910619,0.9996978044509888
1662323726652161343,0,1662323726646697283,t265_odom_frame,t265_pose_frame,-0.00031916022999212146,8.206569327739999e-05,0.0006030707154422998,-0.01757001504302025,0.01715649850666523,-0.00034042244078591466,0.9996983408927917
1662323726657183475,0,1662323726651696205,t265_odom_frame,t265_pose_frame,-0.00033778551733121276,9.874549141386524e-05,0.0004419545875862241,-0.01756475865840912,0.017170380800962448,-0.00037237032665871084,0.9996982216835022
1662323726662562055,0,1662323726656695366,t265_odom_frame,t265_pose_frame,-0.0003369031473994255,0.00010056953760795295,0.00046015341649763286,-0.017563199624419212,0.017234040424227715,-0.00037136016180738807,0.999697208404541
1662323726667324293,0,1662323726661694050,t265_odom_frame,t265_pose_frame,-0.0003369620244484395,0.00010136545461136848,0.0004764110199175775,-0.017580196261405945,0.017260326072573662,-0.00036069817724637687,0.9996963739395142
1662323726672160829,0,1662323726666694403,t265_odom_frame,t265_pose_frame,-0.0003414191596675664,0.00010999161168001592,0.0004993166658096015,-0.017561694607138634,0.017215758562088013,-0.00036491587525233626,0.9996975064277649
1662323726677506350,0,1662323726671693325,t265_odom_frame,t265_pose_frame,-0.0003437127743382007,0.00011656455899355933,0.0005237169098109007,-0.0175409447401762,0.017195139080286026,-0.00037975292070768774,0.999698281288147
1662323726682262595,0,1662323726676692247,t265_odom_frame,t265_pose_frame,-0.0003474018885754049,0.00012470924411900342,0.000549974269233644,-0.017541611567139626,0.017270633950829506,-0.00038361744373105466,0.9996969699859619
1662323726687271565,0,1662323726681691408,t265_odom_frame,t265_pose_frame,-0.0002501050475984812,0.00015412074571941048,0.0004415608709678054,-0.01756504736840725,0.01734805665910244,-0.0004001588677056134,0.9996951222419739
1662323726692110485,0,1662323726686691523,t265_odom_frame,t265_pose_frame,-0.0002375868207309395,0.0001641227863729,0.00046330277109518647,-0.01755945198237896,0.017354793846607208,-0.00041573148337192833,0.9996951222419739
1662323726697462351,0,1662323726691690207,t265_odom_frame,t265_pose_frame,-0.0002237703010905534,0.00017467346333432943,0.00048515043454244733,-0.017546340823173523,0.01732894778251648,-0.00042502384167164564,0.9996958374977112
1662323726702212114,0,1662323726696689129,t265_odom_frame,t265_pose_frame,-0.0002383804676355794,0.00015416400856338441,0.0005064312135800719,-0.017536981031298637,0.01736191101372242,-0.000428117869887501,0.9996954202651978
1662323726707448927,0,1662323726701688290,t265_odom_frame,t265_pose_frame,-0.00024122957256622612,0.00014513159112539142,0.0005311352433636785,-0.017548942938447,0.01740196906030178,-0.00042147422209382057,0.9996944665908813
1662323726712442874,0,1662323726706687212,t265_odom_frame,t265_pose_frame,-0.00024223410582635552,0.00013069144915789366,0.0005531021161004901,-0.017538079991936684,0.017354823648929596,-0.00037615932524204254,0.9996955394744873
1662323726715721135,0,1662323726815509251,/t265_link,/d400_link,0.0,0.0,0.0,0.0,0.0,0.0,1.0
1662323726717152252,0,1662323726711687326,t265_odom_frame,t265_pose_frame,-0.00022055853332858533,0.00011764412192860618,0.000572018267121166,-0.017493290826678276,0.017128216102719307,-0.00021434982772916555,0.9997002482414246
1662323726722025063,0,1662323726716686249,t265_odom_frame,t265_pose_frame,-0.00025354340323247015,2.5258996174670756e-05,0.00038250148645602167,-0.01746898517012596,0.017009520903229713,-9.078974835574627e-05,0.9997026920318604
1662323726727089753,0,1662323726721685410,t265_odom_frame,t265_pose_frame,-0.0002880133397411555,-4.6540185394405853e-07,0.00040579805499874055,-0.01751095801591873,0.017317714169621468,-0.0002754328306764364,0.999696671962738
1662323726732445840,0,1662323726726684093,t265_odom_frame,t265_pose_frame,-0.00023360391787718982,1.778443402145058e-05,0.0003884932666551322,-0.017409315332770348,0.017489872872829437,-0.0002519693225622177,0.9996954798698425
1662323726737240346,0,1662323726731683254,t265_odom_frame,t265_pose_frame,-0.00020470470190048218,1.6317828340106644e-05,0.0003852208028547466,-0.017416557297110558,0.017373498529195786,-0.00021244841627776623,0.9996973276138306
1662323726742643085,0,1662323726736683369,t265_odom_frame,t265_pose_frame,-0.00016316845722030848,2.0678618966485374e-05,0.0003649007703643292,-0.01750236749649048,0.017286716029047966,-0.0002258552412968129,0.9996973872184753
1662323726747385679,0,1662323726741682053,t265_odom_frame,t265_pose_frame,-0.00011786213144659996,3.1497391319135204e-05,0.00034589270944707096,-0.01754622906446457,0.017370285466313362,-0.0002626723435241729,0.9996951818466187
1662323726752090298,0,1662323726746681452,t265_odom_frame,t265_pose_frame,-0.00015281379455700517,2.1790201572002843e-05,0.0003461080777924508,-0.01755334809422493,0.01732620969414711,-0.00023657898418605328,0.9996958374977112
1662323726757036032,0,1662323726751680136,t265_odom_frame,t265_pose_frame,-0.0010170171735808253,0.0001898032205644995,0.0007120500085875392,-0.017680436372756958,0.017350703477859497,-0.00036517667467705905,0.9996930360794067
1662323726762096188,0,1662323726756679296,t265_odom_frame,t265_pose_frame,-0.0011766604147851467,0.00020540105469990522,0.0007704438176006079,-0.01763731986284256,0.01724238321185112,-0.0003354229556862265,0.9996957182884216
1662323726767080959,0,1662323726761678219,t265_odom_frame,t265_pose_frame,-0.0012088918592780828,0.00013357492571230978,0.0007881056517362595,-0.01751350611448288,0.017310477793216705,-0.0003697914071381092,0.9996967315673828
1662323726772577683,0,1662323726766678333,t265_odom_frame,t265_pose_frame,-0.0013144712429493666,9.867686458164826e-05,0.0008280312758870423,-0.01746223494410515,0.01741918921470642,-0.0004220652917865664,0.9996957182884216
1662323726777697135,0,1662323726771677256,t265_odom_frame,t265_pose_frame,-0.001412651501595974,5.103017610963434e-05,0.0008584370370954275,-0.017478276044130325,0.017391420900821686,-0.00040965588414110243,0.999695897102356
1662323726782155938,0,1662323726776676178,t265_odom_frame,t265_pose_frame,-0.0015073275426402688,9.413412772119045e-05,0.0008904782589524984,-0.017459018155932426,0.017326952889561653,-0.0003880277508869767,0.9996973872184753
1662323726786922184,0,1662323726781675339,t265_odom_frame,t265_pose_frame,-0.0003186669200658798,9.451257938053459e-05,0.0005672539118677378,-0.017438478767871857,0.017107512801885605,-0.0002658766752574593,0.9997015595436096
1662323726791992416,0,1662323726786675215,t265_odom_frame,t265_pose_frame,-0.00028813452809117734,0.00015510724915657192,0.0006201978540048003,-0.017520489171147346,0.01723216101527214,-0.0003085083735641092,0.9996979236602783
1662323726797150907,0,1662323726791674376,t265_odom_frame,t265_pose_frame,-0.00029042307869531214,0.00011878946679644287,0.0006385701708495617,-0.017561638727784157,0.017227180302143097,-0.0003349433245602995,0.9996973276138306
1662323726802154794,0,1662323726796673298,t265_odom_frame,t265_pose_frame,-0.00027335170307196677,0.00014070564066059887,0.0006758150411769748,-0.017532626166939735,0.017205186188220978,-0.00037272131885401905,0.9996982216835022
1662323726807472509,0,1662323726801672220,t265_odom_frame,t265_pose_frame,-0.00025606038980185986,0.00015976096619851887,0.0007129838922992349,-0.017481908202171326,0.01725795306265354,-0.00042106059845536947,0.9996981620788574
1662323726812196642,0,1662323726806671381,t265_odom_frame,t265_pose_frame,-0.00024736387422308326,0.0001687817130004987,0.0007415348081849515,-0.01743566058576107,0.017297906801104546,-0.00045241243788041174,0.9996982216835022
1662323726815841703,0,1662323726915586823,/t265_link,/d400_link,0.0,0.0,0.0,0.0,0.0,0.0,1.0
1662323726817136415,0,1662323726811670065,t265_odom_frame,t265_pose_frame,-0.00023870448058005422,0.00017596816178411245,0.0007715669926255941,-0.017441801726818085,0.017262501642107964,-0.00045289358240552247,0.99969881772995
1662323726822074696,0,1662323726816670179,t265_odom_frame,t265_pose_frame,-0.00031770599889568985,7.065293902996927e-05,0.0003315908252261579,-0.01741330698132515,0.01732139103114605,-0.00042573516839183867,0.9996982216835022
1662323726826950357,0,1662323726821669340,t265_odom_frame,t265_pose_frame,-0.000333127798512578,0.00011460990936029702,0.0003417622356209904,-0.01737544685602188,0.017332175746560097,-0.000444260542280972,0.9996986985206604
1662323726832678996,0,1662323726826668262,t265_odom_frame,t265_pose_frame,-0.00034745634184218943,0.00013245346781332046,0.0003441460139583796,-0.017404478043317795,0.01730721816420555,-0.0004388757224660367,0.9996986389160156
1662323726837838518,0,1662323726831667185,t265_odom_frame,t265_pose_frame,-0.00036120929871685803,0.00015736436762381345,0.00034215193591080606,-0.01747266575694084,0.017286257818341255,-0.0004462796205189079,0.9996978044509888
1662323726842441693,0,1662323726836667538,t265_odom_frame,t265_pose_frame,-0.000358503864845261,0.0001307507773162797,0.0003528649394866079,-0.01751113124191761,0.01733364351093769,-0.00041697692358866334,0.9996963739395142
1662323726847358455,0,1662323726841666222,t265_odom_frame,t265_pose_frame,-0.00036505909520201385,0.00011969642946496606,0.00036105079925619066,-0.017471125349402428,0.0173519067466259,-0.00041662718285806477,0.9996967315673828
1662323726852163583,0,1662323726846665382,t265_odom_frame,t265_pose_frame,-0.0003699405351653695,9.888538625091314e-05,0.000367510539945215,-0.01745389588177204,0.017339883372187614,-0.00042835413478314877,0.9996972680091858
1662323726857178516,0,1662323726851664305,t265_odom_frame,t265_pose_frame,-0.0003775302320718765,-7.747953350190073e-05,0.0003937345463782549,-0.017442548647522926,0.017369290813803673,-0.0004514004394877702,0.9996969103813171
1662323726862197098,0,1662323726856663227,t265_odom_frame,t265_pose_frame,-0.0004343021719250828,-8.261474431492388e-05,0.0003934348642360419,-0.017404286190867424,0.017344359308481216,-0.00040976115269586444,0.9996979832649231
1662323726867597381,0,1662323726861663342,t265_odom_frame,t265_pose_frame,-0.00047812197590246797,-0.00011889917368534952,0.0004048833798151463,-0.01736641861498356,0.017260083928704262,-0.000390723958844319,0.999700129032135
1662323726872518939,0,1662323726866662264,t265_odom_frame,t265_pose_frame,-0.000524544098880142,-0.00015777020598761737,0.00041349520324729383,-0.01740766130387783,0.017121080309152603,-0.00037289512692950666,0.9997018575668335
1662323726877442437,0,1662323726871661425,t265_odom_frame,t265_pose_frame,-0.0005356567562557757,-0.00016201163816731423,0.0004189994069747627,-0.017446400597691536,0.01706673949956894,-0.00032636147807352245,0.9997021555900574
1662323726882257792,0,1662323726876660109,t265_odom_frame,t265_pose_frame,-0.0005623713950626552,-0.0001739264844218269,0.0004248892655596137,-0.01746068149805069,0.017045389860868454,-0.0002963090664707124,0.9997022151947021
1662323726887162298,0,1662323726881659508,t265_odom_frame,t265_pose_frame,-0.00041670474456623197,6.767443210264901e-06,0.0005111952195875347,-0.017492540180683136,0.01703793928027153,-0.00028081206255592406,0.9997017979621887
1662323726892159561,0,1662323726886659384,t265_odom_frame,t265_pose_frame,-0.00036963948514312506,-1.884973607957363e-05,0.0005391559097915888,-0.01750391349196434,0.017080169171094894,-0.0003360063419677317,0.9997009038925171
1662323726897215677,0,1662323726891658306,t265_odom_frame,t265_pose_frame,-0.00034202728420495987,-1.3927759937359951e-05,0.0005675556021742523,-0.017512530088424683,0.017207372933626175,-0.0003414732054807246,0.9996985793113708
1662323726902165010,0,1662323726896657467,t265_odom_frame,t265_pose_frame,-0.0003002145967911929,-1.0302600458089728e-05,0.000597919977735728,-0.01751566119492054,0.01732143573462963,-0.00035405351081863046,0.9996964931488037
1662323726907234339,0,1662323726901656151,t265_odom_frame,t265_pose_frame,-0.00032250210642814636,9.305428534389648e-07,0.0006428725901059806,-0.017524966970086098,0.01735968329012394,-0.00036511197686195374,0.9996956586837769
1662323726912208069,0,1662323726906656265,t265_odom_frame,t265_pose_frame,-0.0003207736008334905,9.408287951373495e-06,0.0006857077241875231,-0.017519259825348854,0.01730290986597538,-0.0003833817318081856,0.9996967315673828
1662323726916004727,0,1662323727015669563,/t265_link,/d400_link,0.0,0.0,0.0,0.0,0.0,0.0,1.0
1662323726917084400,0,1662323726911655188,t265_odom_frame,t265_pose_frame,-0.00032933405600488186,1.8994232959812507e-05,0.0007313308888114989,-0.017524711787700653,0.017237506806850433,-0.000363372964784503,0.9996978044509888
1662323726922066656,0,1662323726916654348,t265_odom_frame,t265_pose_frame,-0.00028085519443266094,0.00014106454909779131,0.0002554775564931333,-0.01749975048005581,0.017207548022270203,-0.0003604363009799272,0.9996986985206604
1662323726927072668,0,1662323726921653271,t265_odom_frame,t265_pose_frame,-0.00030156553839333355,0.00014224290498532355,0.00025793243548832834,-0.017485907301306725,0.017144326120615005,-0.000337750039761886,0.9997000694274902
1662323726932131734,0,1662323726926652193,t265_odom_frame,t265_pose_frame,-0.00032818064210005105,0.00014013504551257938,0.0002619439910631627,-0.017448263242840767,0.017071664333343506,-0.0003296700888313353,0.999701976776123
1662323726937512997,0,1662323726931651354,t265_odom_frame,t265_pose_frame,-0.0002964370942208916,0.0001514881878392771,0.0002667198423296213,-0.017433486878871918,0.01706703193485737,-0.00033672008430585265,0.9997023344039917
1662323726942354472,0,1662323726936651468,t265_odom_frame,t265_pose_frame,-0.0002808168646879494,0.0001570509630255401,0.00026997298118658364,-0.017432764172554016,0.017151368781924248,-0.00036752576124854386,0.9997008442878723
1662323726947233128,0,1662323726941650152,t265_odom_frame,t265_pose_frame,-0.0002532625221647322,0.00016410027456004173,0.0002738440234679729,-0.017439376562833786,0.017243074253201485,-0.0003976472944486886,0.9996991753578186
1662323726952197277,0,1662323726946649313,t265_odom_frame,t265_pose_frame,-0.0002602071035653353,0.0001813142589526251,0.0002852069155778736,-0.01745406538248062,0.01728154718875885,-0.00040607937262393534,0.999698281288147
1662323726957176484,0,1662323726951648235,t265_odom_frame,t265_pose_frame,-0.0003440766304265708,0.00017789375851862133,0.0002995647373609245,-0.017458530142903328,0.017312394455075264,-0.0004215986409690231,0.9996976256370544
1662323726962301096,0,1662323726956648111,t265_odom_frame,t265_pose_frame,-0.00033841680851764977,0.00020168755145277828,0.0003075212298426777,-0.017465712502598763,0.017322983592748642,-0.00043490485404618084,0.9996972680091858
1662323726967433700,0,1662323726961647511,t265_odom_frame,t265_pose_frame,-0.000336458528181538,0.00022937130415812135,0.00031672080513089895,-0.017478952184319496,0.017330316826701164,-0.00041881573270075023,0.9996969103813171
1662323726972392283,0,1662323726966646194,t265_odom_frame,t265_pose_frame,-0.0003698458313010633,0.00018100655870512128,0.00033205351792275906,-0.017462462186813354,0.017252786085009575,-0.000409874104661867,0.9996985793113708
1662323726977061783,0,1662323726971645355,t265_odom_frame,t265_pose_frame,-0.00039225450018420815,0.00017099786782637239,0.0003456429985817522,-0.01740836910903454,0.01718497835099697,-0.0004243685689289123,0.999700665473938
1662323726982272771,0,1662323726976644278,t265_odom_frame,t265_pose_frame,-0.00042154936818405986,0.0001533573813503608,0.00036348914727568626,-0.017383920028805733,0.01720825396478176,-0.00043430266669020057,0.9997007250785828
1662323726987090949,0,1662323726981644392,t265_odom_frame,t265_pose_frame,-0.0005623650504276156,6.621491047553718e-05,0.0003497794969007373,-0.01739492639899254,0.017199812456965446,-0.00041235217940993607,0.999700665473938
1662323726991985048,0,1662323726986643314,t265_odom_frame,t265_pose_frame,-0.0005660145543515682,6.552046397700906e-05,0.0003603014920372516,-0.01741693913936615,0.017148219048976898,-0.0003979567263741046,0.999701201915741
1662323726997281999,0,1662323726991642237,t265_odom_frame,t265_pose_frame,-0.0005662064650095999,6.769516767235473e-05,0.0003712952311616391,-0.01736748218536377,0.0170774944126606,-0.0004058891208842397,0.9997032284736633
1662323727002353241,0,1662323726996641397,t265_odom_frame,t265_pose_frame,-0.0005575356190092862,6.928620132384822e-05,0.0003729460877366364,-0.017360040917992592,0.01712958700954914,-0.00041971675818786025,0.999702513217926
1662323727007643748,0,1662323727001640081,t265_odom_frame,t265_pose_frame,-0.000549356103874743,7.51946063246578e-05,0.00038116262294352055,-0.017423370853066444,0.017266038805246353,-0.0004137093492317945,0.9996989965438843
1662323727012338117,0,1662323727006640434,t265_odom_frame,t265_pose_frame,-0.0005407501012086868,8.328822150360793e-05,0.00038291767123155296,-0.017455177381634712,0.017314590513706207,-0.00037606857949867845,0.9996976256370544
1662323727016000009,0,1662323727115769215,/t265_link,/d400_link,0.0,0.0,0.0,0.0,0.0,0.0,1.0
1662323727017064270,0,1662323727011733532,t265_odom_frame,t265_pose_frame,-0.0005678202724084258,6.617444159928709e-05,0.00041506384150125086,-0.017415901646018028,0.017195122316479683,-0.00037624017568305135,0.9997003674507141
1662323727021943036,0,1662323727016732693,t265_odom_frame,t265_pose_frame,-0.0005913900095038116,5.392591992858797e-05,0.00023755786241963506,-0.017361372709274292,0.017131382599473,-0.00043146326788701117,0.999702513217926
1662323727027259692,0,1662323727021731853,t265_odom_frame,t265_pose_frame,-0.0006129236426204443,2.837614738382399e-05,0.0002701785124372691,-0.017375821247696877,0.017197363078594208,-0.00043188981362618506,0.9997011423110962
1662323727032377962,0,1662323727026730776,t265_odom_frame,t265_pose_frame,-0.000617627112660557,2.4277806005557068e-05,0.00025674913194961846,-0.01739349402487278,0.017324119806289673,-0.00040279084350913763,0.9996985793113708
1662323727037471137,0,1662323727031730652,t265_odom_frame,t265_pose_frame,-0.0006306407740339637,5.460216925712302e-06,0.00027364984271116555,-0.01735607348382473,0.017225006595253944,-0.00039602344622835517,0.9997009634971619
1662323727042065853,0,1662323727036729813,t265_odom_frame,t265_pose_frame,-0.0006383520667441189,-1.3538361599785276e-05,0.0003017727576661855,-0.017307769507169724,0.01707306131720543,-0.00043417056440375745,0.9997043609619141
1662323727047627030,0,1662323727041728735,t265_odom_frame,t265_pose_frame,-0.0006168801919557154,-1.6291993233608082e-05,0.0003285139973741025,-0.017360445111989975,0.017094625160098076,-0.00044436819734983146,0.9997031092643738
1662323727052189574,0,1662323727046727896,t265_odom_frame,t265_pose_frame,-0.0006011342047713697,-2.20869442273397e-05,0.00035102671245113015,-0.017407070845365524,0.01724449172616005,-0.00044111537863500416,0.9996997117996216
1662323727057093265,0,1662323727051727772,t265_odom_frame,t265_pose_frame,-0.0001563859113957733,-6.689184374408796e-05,0.0005262455088086426,-0.017407987266778946,0.01733902283012867,-0.0004418743192218244,0.9996980428695679
1662323727062333528,0,1662323727056726694,t265_odom_frame,t265_pose_frame,-0.0001368739758618176,-6.675194890704006e-05,0.0005811583250761032,-0.01737673394382,0.01726522110402584,-0.0004907748661935329,0.9996998310089111
1662323727067416091,0,1662323727061725616,t265_odom_frame,t265_pose_frame,-9.904574835672975e-05,-6.0271424445090815e-05,0.0006208838894963264,-0.017453907057642937,0.01733602024614811,-0.00046212796587496996,0.9996972680091858
1662323727072134380,0,1662323727066724777,t265_odom_frame,t265_pose_frame,-6.803658470744267e-05,-5.102905197418295e-05,0.0006498298607766628,-0.017511367797851562,0.01745809055864811,-0.0004260452406015247,0.9996941685676575
1662323727077528943,0,1662323727071723938,t265_odom_frame,t265_pose_frame,-3.22720043186564e-05,-3.895156623912044e-05,0.0006795723456889391,-0.01747114583849907,0.01742439903318882,-0.00042891266639344394,0.9996954798698425
1662323727082183358,0,1662323727076723576,t265_odom_frame,t265_pose_frame,-4.509033897193149e-05,-8.626651106169447e-05,0.0007138560758903623,-0.017415141686797142,0.017384713515639305,-0.00047712030936963856,0.9996970891952515
1662323727087242338,0,1662323727081722736,t265_odom_frame,t265_pose_frame,-0.0004828994278796017,4.081805673195049e-05,9.216749458573759e-05,-0.017332229763269424,0.01726103387773037,-0.00046030638623051345,0.9997007250785828
1662323727092098015,0,1662323727086721659,t265_odom_frame,t265_pose_frame,-0.000520809437148273,2.350406475670752e-06,6.31883813184686e-05,-0.01731916517019272,0.017228325828909874,-0.00042341515654698014,0.9997015595436096
1662323727097225707,0,1662323727091720819,t265_odom_frame,t265_pose_frame,-0.0005489241448231041,3.593180008465424e-05,5.82155043957755e-05,-0.017276449128985405,0.017024802044034004,-0.00040807435289025307,0.9997057318687439
1662323727102282205,0,1662323727096719980,t265_odom_frame,t265_pose_frame,-0.0005975649110041559,2.7136882636114024e-05,4.132322646910325e-05,-0.017278261482715607,0.016971783712506294,-0.0004527891578618437,0.9997065663337708
1662323727107502080,0,1662323727101718664,t265_odom_frame,t265_pose_frame,-0.0006505613564513624,2.1719708456657827e-05,2.206091085099615e-05,-0.01733607053756714,0.017079968005418777,-0.0004556530329864472,0.9997037649154663
1662323727112271792,0,1662323727106718779,t265_odom_frame,t265_pose_frame,-0.0006509052473120391,1.7451884559704922e-05,-1.32582817968796e-05,-0.017363155260682106,0.01723495125770569,-0.00044025765964761376,0.9997006058692932
1662323727116274728,0,1662323727215867692,/t265_link,/d400_link,0.0,0.0,0.0,0.0,0.0,0.0,1.0
1662323727117092750,0,1662323727111717463,t265_odom_frame,t265_pose_frame,-0.0006660880753770471,1.692147816356737e-05,-4.211686973576434e-05,-0.017372462898492813,0.01717493310570717,-0.000443316122982651,0.9997014999389648
1662323727122063703,0,1662323727116716862,t265_odom_frame,t265_pose_frame,-0.000297487189527601,0.00017940545512828976,0.0004054096934851259,-0.01742035523056984,0.017193162813782692,-0.0004968639696016908,0.9997003674507141
1662323727127166248,0,1662323727121715784,t265_odom_frame,t265_pose_frame,-0.0003143516951240599,0.00016952342411968857,0.0004234332882333547,-0.01741916500031948,0.017236514016985893,-0.0005054395296610892,0.9996995329856873
1662323727132245933,0,1662323727126715660,t265_odom_frame,t265_pose_frame,-0.0002931297058239579,0.00017359071352984756,0.0004504851240199059,-0.01740596443414688,0.017293227836489677,-0.000504815427120775,0.99969881772995
1662323727137536301,0,1662323727131714821,t265_odom_frame,t265_pose_frame,-0.0002718906325753778,0.0001752284006215632,0.0004771774692926556,-0.01739979162812233,0.017168501392006874,-0.0005076281377114356,0.9997010827064514
1662323727142304297,0,1662323727136713505,t265_odom_frame,t265_pose_frame,-0.0002377683704253286,0.00019260807312093675,0.0005413168109953403,-0.017421206459403038,0.017103293910622597,-0.00046909190132282674,0.9997019171714783
1662323727147244899,0,1662323727141712666,t265_odom_frame,t265_pose_frame,-0.00021031232608947903,0.00020483197295106947,0.0005978926783427596,-0.017457764595746994,0.017093082889914513,-0.0004270586359780282,0.9997014403343201
1662323727152089954,0,1662323727146711826,t265_odom_frame,t265_pose_frame,-0.00017973028298001736,0.00021986529463902116,0.0006663784733973444,-0.017440177500247955,0.017048116773366928,-0.0004305913462303579,0.999702513217926
1662323727157234579,0,1662323727151711702,t265_odom_frame,t265_pose_frame,-0.0005877406802028418,0.00015070242807269096,0.00023548034369014204,-0.017382275313138962,0.017044439911842346,-0.0004367966903373599,0.9997035264968872
1662323727162386496,0,1662323727156710625,t265_odom_frame,t265_pose_frame,-0.0005842192913405597,0.00014428184658754617,0.00023267461801879108,-0.017363933846354485,0.017262142151594162,-0.00040436681592836976,0.999700129032135
1662323727167417145,0,1662323727161709785,t265_odom_frame,t265_pose_frame,-0.0005814648466184735,0.0001330036175204441,0.00021838172688148916,-0.017371920868754387,0.017391161993145943,-0.0003639355709310621,0.999697744846344
1662323727172289701,0,1662323727166708708,t265_odom_frame,t265_pose_frame,-0.0006560158217325807,0.0001416189334122464,0.00022142688976600766,-0.017338311299681664,0.017213262617588043,-0.0003875475376844406,0.9997014403343201
1662323727176904750,0,1662323727171707869,t265_odom_frame,t265_pose_frame,-0.0007058324408717453,0.00014229444786906242,0.00021750869927927852,-0.017336145043373108,0.0170504841953516,-0.0003961404145229608,0.9997043013572693
1662323727182294268,0,1662323727176706791,t265_odom_frame,t265_pose_frame,-0.0007722118753008544,0.0001453392906114459,0.00021299323998391628,-0.01737886667251587,0.017153631895780563,-0.0003709989250637591,0.9997018575668335
1662323727187074096,0,1662323727181706905,t265_odom_frame,t265_pose_frame,-0.0007044791709631681,8.938588871387765e-05,0.00011467007425380871,-0.01738915778696537,0.01710398867726326,-0.00036927906330674887,0.9997024536132812
1662323727192153802,0,1662323727186705589,t265_odom_frame,t265_pose_frame,-0.0006708619184792042,7.886191451689228e-05,0.00012238530325703323,-0.017391154542565346,0.01693676970899105,-0.0004068102571181953,0.9997052550315857
1662323727197214428,0,1662323727191704750,t265_odom_frame,t265_pose_frame,-0.000694933463819325,7.810176612110808e-05,0.0001353468542220071,-0.017382314428687096,0.01688244752585888,-0.0004667092580348253,0.9997063279151917
1662323727202262664,0,1662323727196703911,t265_odom_frame,t265_pose_frame,-0.0007128198049031198,7.725457544438541e-05,0.00015294855984393507,-0.017356842756271362,0.01715558022260666,-0.0005201239255256951,0.9997020959854126
1662323727207381882,0,1662323727201703548,t265_odom_frame,t265_pose_frame,-0.000700208533089608,7.515958714066073e-05,0.00013843430497217923,-0.01735544204711914,0.017400691285729408,-0.0005336531321518123,0.9996978640556335
1662323727212182250,0,1662323727206702948,t265_odom_frame,t265_pose_frame,-0.0006911825039424002,7.351982640102506e-05,0.00013382951146923006,-0.017391549423336983,0.017455216497182846,-0.0005862591788172722,0.9996962547302246
1662323727216290020,0,1662323727315980607,/t265_link,/d400_link,0.0,0.0,0.0,0.0,0.0,0.0,1.0
1662323727217116401,0,1662323727211701632,t265_odom_frame,t265_pose_frame,-0.0006726321880705655,7.178638043114915e-05,0.0001243746664840728,-0.01740371063351631,0.017317000776529312,-0.0006135012954473495,0.9996984004974365
1662323727222080450,0,1662323727216700792,t265_odom_frame,t265_pose_frame,-0.0002278034808114171,0.00012329027231317014,0.0004259388952050358,-0.017411036416888237,0.017256494611501694,-0.000575769750867039,0.9996993541717529
1662323727227180367,0,1662323727221699953,t265_odom_frame,t265_pose_frame,-0.0002705318038351834,0.00013522910012397915,0.00045323497033677995,-0.01743738166987896,0.017206398770213127,-0.0005268530221655965,0.9996998310089111
1662323727232346370,0,1662323727226699591,t265_odom_frame,t265_pose_frame,-0.0003324414137750864,0.00015015235112514347,0.0004828810051549226,-0.01746092364192009,0.017176682129502296,-0.0005233599804341793,0.9996998906135559
1662323727237380972,0,1662323727231698751,t265_odom_frame,t265_pose_frame,-0.00021513408864848316,0.00017171615036204457,0.0005363367381505668,-0.0174026507884264,0.017075592651963234,-0.0005414580227807164,0.9997026324272156
1662323727242104106,0,1662323727236697674,t265_odom_frame,t265_pose_frame,-0.0001907943660626188,0.00019473042630124837,0.0005790623254142702,-0.017386188730597496,0.01697973720729351,-0.0005658441223204136,0.9997045397758484
1662323727246985106,0,1662323727241696835,t265_odom_frame,t265_pose_frame,-0.00015246075054164976,0.0002212968101957813,0.0006262509850785136,-0.01755906455218792,0.0170452781021595,-0.0005771142896264791,0.9997003078460693
1662323727251849275,0,1662323727246696711,t265_odom_frame,t265_pose_frame,-5.704568684450351e-05,0.0003644725657068193,0.0006138684693723917,-0.01782236434519291,0.017507029697299004,-0.0006202245713211596,0.999687671661377
1662323727257185624,0,1662323727251695633,t265_odom_frame,t265_pose_frame,0.0002924459404312074,0.0006043078610673547,0.0006596928578801453,-0.018060030415654182,0.018299845978617668,-0.0006668776622973382,0.9996691942214966
1662323727262097969,0,1662323727256694794,t265_odom_frame,t265_pose_frame,0.0004743329482153058,0.0008089313632808626,0.0006734953494742513,-0.018200937658548355,0.018691152334213257,-0.0007412263075821102,0.9996593594551086
1662323727267206771,0,1662323727261693716,t265_odom_frame,t265_pose_frame,0.00020040931121911854,0.0007394262356683612,0.0008231456740759313,-0.018245266750454903,0.01850126124918461,-0.0007841099286451936,0.9996620416641235
1662323727272312760,0,1662323727266692877,t265_odom_frame,t265_pose_frame,0.00011825701221823692,0.0008077800157479942,0.0009102066978812218,-0.018283013254404068,0.018090682104229927,-0.0007155346102081239,0.9996689558029175
1662323727276848832,0,1662323727271692753,t265_odom_frame,t265_pose_frame,-3.482465763227083e-05,0.000853158941026777,0.001019498216919601,-0.01840069517493248,0.017813555896282196,-0.0005927131278440356,0.9996718764305115
1662323727282329656,0,1662323727276691675,t265_odom_frame,t265_pose_frame,-6.514429514936637e-06,0.0009320412646047771,0.0010676841484382749,-0.018583552911877632,0.01762372814118862,-0.0005022854311391711,0.9996718764305115
1662323727287115097,0,1662323727281690598,t265_odom_frame,t265_pose_frame,-0.0004770898667629808,0.0004583625996019691,0.00032722431933507323,-0.018556421622633934,0.017409995198249817,-0.0004923220840282738,0.9996761083602905
1662323727292251480,0,1662323727286689758,t265_odom_frame,t265_pose_frame,-0.0005429243319667876,0.0004537265922408551,0.0003353497595526278,-0.018526773899793625,0.01719730719923973,-0.00047830032417550683,0.9996803402900696
1662323727297246264,0,1662323727291688681,t265_odom_frame,t265_pose_frame,-0.0005991958896629512,0.00044194149086251855,0.0003351671330165118,-0.01853087730705738,0.0172259658575058,-0.000512203318066895,0.9996797442436218
1662323727302179025,0,1662323727296687603,t265_odom_frame,t265_pose_frame,-0.0004724315949715674,0.00039592760731466115,0.0002903355925809592,-0.01862231269478798,0.017449835315346718,-0.0005365466931834817,0.9996742010116577
1662323727307242138,0,1662323727301687717,t265_odom_frame,t265_pose_frame,-0.00041042911470867693,0.00035465366090647876,0.00026944573619402945,-0.018716875463724136,0.017729656770825386,-0.0005511681083589792,0.9996675252914429
1662323727312034667,0,1662323727306686878,t265_odom_frame,t265_pose_frame,-0.0003167990653309971,0.0003024991601705551,0.00023964102729223669,-0.018662724643945694,0.017871065065264702,-0.0005760241765528917,0.9996659755706787
1662323727316318577,0,1662323727416066752,/t265_link,/d400_link,0.0,0.0,0.0,0.0,0.0,0.0,1.0
1662323727317028029,0,1662323727311685562,t265_odom_frame,t265_pose_frame,-0.0003842364822048694,0.0002082080318359658,0.0002594070101622492,-0.01855156384408474,0.017885860055685043,-0.0006094868876971304,0.999667763710022
1662323727322227063,0,1662323727316684723,t265_odom_frame,t265_pose_frame,-0.0006127264350652695,-0.0004864942457061261,0.00045298674376681447,-0.01850404217839241,0.017956899479031563,-0.0005882401601411402,0.9996673464775085
1662323727327046075,0,1662323727321684837,t265_odom_frame,t265_pose_frame,-0.0006981869810260832,-0.0006567701930180192,0.00047267237096093595,-0.018474088981747627,0.017784643918275833,-0.0005283868522383273,0.9996710419654846
1662323727332409358,0,1662323727326683521,t265_odom_frame,t265_pose_frame,-0.000780445639975369,-0.0006691619055345654,0.00046302139526233077,-0.018479427322745323,0.01751735620200634,-0.00042949861381202936,0.9996756911277771
1662323727337286103,0,1662323727331682920,t265_odom_frame,t265_pose_frame,-0.0008880795212462544,-0.0007693431107327342,0.0004697236872743815,-0.018429629504680634,0.01733008213341236,-0.0003601331845857203,0.9996799230575562
1662323727342138841,0,1662323727336681604,t265_odom_frame,t265_pose_frame,-0.0010107101406902075,-0.000859755789861083,0.0004783116455655545,-0.018365122377872467,0.017244143411517143,-0.00035745700006373227,0.999682605266571
1662323727346926514,0,1662323727341680765,t265_odom_frame,t265_pose_frame,-0.0010069883428514004,-0.0009864106541499496,0.000486978970002383,-0.018315264955163002,0.017281975597143173,-0.00040810901555232704,0.9996827840805054
1662323727352103834,0,1662323727346680880,t265_odom_frame,t265_pose_frame,-0.0010373869445174932,-0.0010968106798827648,0.0004954678006470203,-0.018281832337379456,0.017416011542081833,-0.00045602297177538276,0.9996811151504517
1662323727357251712,0,1662323727351679802,t265_odom_frame,t265_pose_frame,-0.0004346923087723553,-0.00043950945837423205,0.00010414770076749846,-0.01838327944278717,0.017633328214287758,-0.00042419295641593635,0.9996753931045532
1662323727362207754,0,1662323727356678724,t265_odom_frame,t265_pose_frame,-0.0005310922861099243,-0.00047714568790979683,0.00012040635920129716,-0.018361985683441162,0.01770840212702751,-0.00044667485053651035,0.9996744990348816
1662323727367526189,0,1662323727361677647,t265_odom_frame,t265_pose_frame,-0.0005355937173590064,-0.0005283735226839781,0.000119193566206377,-0.018343035131692886,0.017573289573192596,-0.0004413662536535412,0.9996772408485413
1662323727372066898,0,1662323727366676807,t265_odom_frame,t265_pose_frame,-0.0005509112379513681,-0.0005775263416580856,0.00012200565834064037,-0.018326111137866974,0.01731327921152115,-0.00042026248411275446,0.9996821284294128
1662323727376909261,0,1662323727371676683,t265_odom_frame,t265_pose_frame,-0.0005133137456141412,-0.0006173916044645011,9.873350791167468e-05,-0.018289372324943542,0.017209643498063087,-0.0004111540038138628,0.9996845126152039
1662323727381961593,0,1662323727376675844,t265_odom_frame,t265_pose_frame,-0.0004945726250298321,-0.0006560710025951266,8.82452295627445e-05,-0.018277833238244057,0.017271095886826515,-0.000419724645325914,0.999683678150177
1662323727387003320,0,1662323727381674767,t265_odom_frame,t265_pose_frame,-0.0004209014878142625,-0.00015694188186898828,0.00026128010358661413,-0.01826038397848606,0.01744747720658779,-0.00038934327312745154,0.9996809363365173
1662323727392190672,0,1662323727386673689,t265_odom_frame,t265_pose_frame,-0.00040974371950142086,-0.00015769543824717402,0.00027927805786021054,-0.018301060423254967,0.017527500167489052,-0.00039380931411869824,0.9996788501739502
1662323727397717210,0,1662323727391672850,t265_odom_frame,t265_pose_frame,-0.00037868868093937635,-0.00015297872596420348,0.0002859876840375364,-0.018321363255381584,0.017563560977578163,-0.00039978628046810627,0.999677836894989
1662323727402149449,0,1662323727396672964,t265_odom_frame,t265_pose_frame,-0.00034326474997214973,-0.0001449103729100898,0.0002938054967671633,-0.01833094097673893,0.01759517937898636,-0.00041767212678678334,0.9996770620346069
1662323727407484007,0,1662323727401671648,t265_odom_frame,t265_pose_frame,-0.00030448674806393683,-0.00013351770758163184,0.0003010772925335914,-0.018318142741918564,0.017641454935073853,-0.0004320709267631173,0.999676525592804
1662323727411955534,0,1662323727406670809,t265_odom_frame,t265_pose_frame,-0.00034142733784392476,-0.00014055684732738882,0.0003259207296650857,-0.018329819664359093,0.017628850415349007,-0.0004417509480845183,0.9996764659881592
1662323727416536635,0,1662323727516150238,/t265_link,/d400_link,0.0,0.0,0.0,0.0,0.0,0.0,1.0
1662323727416871909,0,1662323727411669731,t265_odom_frame,t265_pose_frame,-0.0003531317925080657,-0.00013720846618525684,0.0003458755381871015,-0.018347710371017456,0.017567535862326622,-0.0004220169794280082,0.9996772408485413
1662323727422043175,0,1662323727416668653,t265_odom_frame,t265_pose_frame,-0.0003912869724445045,0.00018165782967116684,0.0006331877084448934,-0.01838061399757862,0.01741568185389042,-0.00035510651650838554,0.9996793866157532
1662323727427110786,0,1662323727421669006,t265_odom_frame,t265_pose_frame,-0.0003998441679868847,0.0001848456304287538,0.0006507094949483871,-0.018387064337730408,0.01736852526664734,-0.0003430725773796439,0.9996799826622009
1662323727432413830,0,1662323727426667690,t265_odom_frame,t265_pose_frame,-0.0004357261350378394,0.00019237420929130167,0.0006825056625530124,-0.018371768295764923,0.017350735142827034,-0.00032544080750085413,0.9996805787086487
1662323727437055767,0,1662323727431666851,t265_odom_frame,t265_pose_frame,-0.0004760304873343557,0.00019693827198352665,0.000714110501576215,-0.01833188720047474,0.017362570390105247,-0.00032106490107253194,0.9996811747550964
1662323727442215196,0,1662323727436665773,t265_odom_frame,t265_pose_frame,-0.00047482707304880023,0.00019903450447600335,0.0007610885659232736,-0.01830246113240719,0.01736162044107914,-0.00031470941030420363,0.9996817111968994
1662323727447259269,0,1662323727441664696,t265_odom_frame,t265_pose_frame,-0.00048678694292902946,0.00019798272114712745,0.0008025330607779324,-0.018279792740941048,0.017390765249729156,-0.00032640041899867356,0.9996816515922546
1662323727451909792,0,1662323727446664810,t265_odom_frame,t265_pose_frame,-0.000491129292640835,0.0001940094371093437,0.0008457144140265882,-0.018284013494849205,0.017432212829589844,-0.0003348473983351141,0.999680757522583
1662323727457127155,0,1662323727451663733,t265_odom_frame,t265_pose_frame,-0.0004265741154085845,0.00014174447278492153,0.0005498694372363389,-0.018287915736436844,0.017530478537082672,-0.0003276518255006522,0.9996790289878845
1662323727462152317,0,1662323727456662893,t265_odom_frame,t265_pose_frame,-0.00042935778037644923,0.00015161142800934613,0.0005732242716476321,-0.018290851265192032,0.017494432628154755,-0.0003265729174017906,0.9996796250343323
1662323727467241414,0,1662323727461661577,t265_odom_frame,t265_pose_frame,-0.00043768479372374713,0.00016536600014660507,0.000599321851041168,-0.01826919987797737,0.017458662390708923,-0.00031487294472754,0.9996806383132935
1662323727472176865,0,1662323727466661692,t265_odom_frame,t265_pose_frame,-0.00045388995204120874,0.0001578407536726445,0.0006353199132718146,-0.01825902611017227,0.017400354146957397,-0.00031012683757580817,0.999681830406189
1662323727477234479,0,1662323727471660852,t265_odom_frame,t265_pose_frame,-0.0004731359367724508,0.0001576637732796371,0.0006690497393719852,-0.018233226612210274,0.017354531213641167,-0.00029568583704531193,0.999683141708374
1662323727482448983,0,1662323727476659775,t265_odom_frame,t265_pose_frame,-0.0004967902204953134,0.00015409676416311413,0.0007049927371554077,-0.018215691670775414,0.017284011468291283,-0.00028913337155245245,0.9996846914291382
1662323727487278896,0,1662323727481658697,t265_odom_frame,t265_pose_frame,-0.0008273243438452482,-2.399513505224604e-05,0.00045450753532350063,-0.018198801204562187,0.017178814858198166,-0.0002439474337734282,0.9996867775917053
1662323727492078496,0,1662323727486657619,t265_odom_frame,t265_pose_frame,-0.0008376351906917989,-3.512945841066539e-05,0.00046681929961778224,-0.018173161894083023,0.017173290252685547,-0.00024976060376502573,0.9996873736381531
1662323727497367741,0,1662323727491656780,t265_odom_frame,t265_pose_frame,-0.0008393446914851665,-4.5850727474316955e-05,0.0004798820009455085,-0.018137386068701744,0.017221180722117424,-0.0002686750958673656,0.9996871948242188
1662323727502190091,0,1662323727496656656,t265_odom_frame,t265_pose_frame,-0.0008462725672870874,-3.954385465476662e-05,0.000489976373501122,-0.018105121329426765,0.017269250005483627,-0.00030706453253515065,0.9996868968009949
1662323727507127803,0,1662323727501655817,t265_odom_frame,t265_pose_frame,-0.0008407324203290045,-3.513362753437832e-05,0.0005007189465686679,-0.018088020384311676,0.017300792038440704,-0.00034431033418513834,0.9996866583824158
1662323727512476668,0,1662323727506654739,t265_odom_frame,t265_pose_frame,-0.000830168544780463,-2.5672712581581436e-05,0.00050923420349136,-0.018112925812602043,0.017324240878224373,-0.0003638492780737579,0.9996857643127441
1662323727516629852,0,1662323727616262814,/t265_link,/d400_link,0.0,0.0,0.0,0.0,0.0,0.0,1.0
1662323727517151060,0,1662323727511535883,t265_odom_frame,t265_pose_frame,-0.0008135768584907055,-1.1182696653122548e-05,0.0005148434429429471,-0.018130969256162643,0.017354002222418785,-0.00036027259193360806,0.9996849298477173
1662323727521983159,0,1662323727516535044,t265_odom_frame,t265_pose_frame,-0.0006257997010834515,6.0889105952810496e-05,0.00039789173752069473,-0.018136486411094666,0.017379505559802055,-0.00039299047784879804,0.9996843934059143
1662323727527037672,0,1662323727521533966,t265_odom_frame,t265_pose_frame,-0.0006162151112221181,8.176891424227506e-05,0.0004206638259347528,-0.018103746697306633,0.017354369163513184,-0.00043963867938145995,0.9996853470802307
1662323727532264897,0,1662323727526532888,t265_odom_frame,t265_pose_frame,-0.0006071094539947808,0.00010497383482288569,0.00044920764048583806,-0.018122006207704544,0.01741468347609043,-0.0004667848697863519,0.9996839761734009
1662323727537206818,0,1662323727531532049,t265_odom_frame,t265_pose_frame,-0.0005896120565012097,0.00011375951726222411,0.00044248439371585846,-0.01815672032535076,0.017474018037319183,-0.0004728747589979321,0.9996823072433472
1662323727542347672,0,1662323727536530972,t265_odom_frame,t265_pose_frame,-0.0005749812698923051,0.00013185635907575488,0.00045863664126954973,-0.018174704164266586,0.017497844994068146,-0.0004686600004788488,0.9996815919876099
1662323727547123300,0,1662323727541530848,t265_odom_frame,t265_pose_frame,-0.0005588160711340606,0.00014976892271079123,0.00047448065015487373,-0.01816021278500557,0.01742994412779808,-0.0004850854747928679,0.9996830224990845
1662323727551853819,0,1662323727546530008,t265_odom_frame,t265_pose_frame,-0.0005573497619479895,0.00015949569933582097,0.0005016971845179796,-0.01814740151166916,0.017418427392840385,-0.0004893260775133967,0.9996834993362427
1662323727557059711,0,1662323727551529169,t265_odom_frame,t265_pose_frame,-0.0006358386017382145,0.00014380399079527706,0.00026617516414262354,-0.01814495027065277,0.017392832785844803,-0.00045731948921456933,0.9996839761734009
